{"type":"FeatureCollection","features":[{"type":"Feature","id":1,"geometry":{"type":"Point","coordinates":[-70.132444443999987,-20.212472221999974]},"properties":{"OBJECTID":1,"COL_A":"","NOMBRE":"CALLE SOTOMAYOR - 26GHz_1","DIRECCIÓN__CALLE__NÚMERO__COMUNA_Y_REGIÓN_":"LOTE 5 CALLE SOTOMAYOR IQUIQUE, COMUNA DE IQUIQUE, REGIÓN DE TARAPACÁ","LATITUD":"-20° 12' 44,90''","LONGITUD":"-70° 7' 56,80''","Frecuencia":26000,"Y":-20.212472222222221,"X":-70.132444444444431}},{"type":"Feature","id":2,"geometry":{"type":"Point","coordinates":[-70.132444443999987,-20.212472221999974]},"properties":{"OBJECTID":2,"COL_A":"","NOMBRE":"CALLE SOTOMAYOR - 26GHz_2","DIRECCIÓN__CALLE__NÚMERO__COMUNA_Y_REGIÓN_":"LOTE 5 CALLE SOTOMAYOR IQUIQUE, COMUNA DE IQUIQUE, REGIÓN DE TARAPACÁ","LATITUD":"-20° 12' 44,90''","LONGITUD":"-70° 7' 56,80''","Frecuencia":26000,"Y":-20.212472222222221,"X":-70.132444444444431}},{"type":"Feature","id":3,"geometry":{"type":"Point","coordinates":[-70.132444443999987,-20.212472221999974]},"properties":{"OBJECTID":3,"COL_A":"","NOMBRE":"CALLE SOTOMAYOR - 26GHz_3","DIRECCIÓN__CALLE__NÚMERO__COMUNA_Y_REGIÓN_":"LOTE 5 CALLE SOTOMAYOR IQUIQUE, COMUNA DE IQUIQUE, REGIÓN DE TARAPACÁ","LATITUD":"-20° 12' 44,90''","LONGITUD":"-70° 7' 56,80''","Frecuencia":26000,"Y":-20.212472222222221,"X":-70.132444444444431}},{"type":"Feature","id":4,"geometry":{"type":"Point","coordinates":[-70.140694443999962,-20.218388888999982]},"properties":{"OBJECTID":4,"COL_A":"","NOMBRE":"Iquique Oriente - 26GHz_1","DIRECCIÓN__CALLE__NÚMERO__COMUNA_Y_REGIÓN_":"ZEGERS 1557-1561, COMUNA DE IQUIQUE, REGIÓN DE TARAPACÁ","LATITUD":"-20° 13' 6,20''","LONGITUD":"-70° 8' 26,50''","Frecuencia":26000,"Y":-20.218388888888889,"X":-70.140694444444449}},{"type":"Feature","id":5,"geometry":{"type":"Point","coordinates":[-70.140694443999962,-20.218388888999982]},"properties":{"OBJECTID":5,"COL_A":"","NOMBRE":"Iquique Oriente - 26GHz_2","DIRECCIÓN__CALLE__NÚMERO__COMUNA_Y_REGIÓN_":"ZEGERS 1557-1561, COMUNA DE IQUIQUE, REGIÓN DE TARAPACÁ","LATITUD":"-20° 13' 6,20''","LONGITUD":"-70° 8' 26,50''","Frecuencia":26000,"Y":-20.218388888888889,"X":-70.140694444444449}},{"type":"Feature","id":6,"geometry":{"type":"Point","coordinates":[-70.140694443999962,-20.218388888999982]},"properties":{"OBJECTID":6,"COL_A":"","NOMBRE":"Iquique Oriente - 26GHz_3","DIRECCIÓN__CALLE__NÚMERO__COMUNA_Y_REGIÓN_":"ZEGERS 1557-1561, COMUNA DE IQUIQUE, REGIÓN DE TARAPACÁ","LATITUD":"-20° 13' 6,20''","LONGITUD":"-70° 8' 26,50''","Frecuencia":26000,"Y":-20.218388888888889,"X":-70.140694444444449}},{"type":"Feature","id":7,"geometry":{"type":"Point","coordinates":[-70.152416666999954,-20.215638888999933]},"properties":{"OBJECTID":7,"COL_A":"","NOMBRE":"Iquique Entel_26GHz_1","DIRECCIÓN__CALLE__NÚMERO__COMUNA_Y_REGIÓN_":"GOROSTIAGA 287, COMUNA DE IQUIQUE, REGIÓN DE TARAPACÁ","LATITUD":"-20° 12' 56,30''","LONGITUD":"-70° 9' 8,70''","Frecuencia":26000,"Y":-20.21563888888889,"X":-70.152416666666667}},{"type":"Feature","id":8,"geometry":{"type":"Point","coordinates":[-70.152416666999954,-20.215638888999933]},"properties":{"OBJECTID":8,"COL_A":"","NOMBRE":"Iquique Entel_26GHz_2","DIRECCIÓN__CALLE__NÚMERO__COMUNA_Y_REGIÓN_":"GOROSTIAGA 287, COMUNA DE IQUIQUE, REGIÓN DE TARAPACÁ","LATITUD":"-20° 12' 56,30''","LONGITUD":"-70° 9' 8,70''","Frecuencia":26000,"Y":-20.21563888888889,"X":-70.152416666666667}},{"type":"Feature","id":9,"geometry":{"type":"Point","coordinates":[-70.152416666999954,-20.215638888999933]},"properties":{"OBJECTID":9,"COL_A":"","NOMBRE":"Iquique Entel_26GHz_3","DIRECCIÓN__CALLE__NÚMERO__COMUNA_Y_REGIÓN_":"GOROSTIAGA 287, COMUNA DE IQUIQUE, REGIÓN DE TARAPACÁ","LATITUD":"-20° 12' 56,30''","LONGITUD":"-70° 9' 8,70''","Frecuencia":26000,"Y":-20.21563888888889,"X":-70.152416666666667}},{"type":"Feature","id":10,"geometry":{"type":"Point","coordinates":[-70.146588888999986,-20.206736110999941]},"properties":{"OBJECTID":10,"COL_A":"","NOMBRE":"Muelle Fiscal_26GHz_1","DIRECCIÓN__CALLE__NÚMERO__COMUNA_Y_REGIÓN_":"PASAJE PUERTA CHICA 49, COMUNA DE IQUIQUE, REGIÓN DE TARAPACÁ","LATITUD":"-20° 12' 24,25''","LONGITUD":"-70° 8' 47,72''","Frecuencia":26000,"Y":-20.206736111111109,"X":-70.1465888888889}},{"type":"Feature","id":11,"geometry":{"type":"Point","coordinates":[-70.146588888999986,-20.206736110999941]},"properties":{"OBJECTID":11,"COL_A":"","NOMBRE":"Muelle Fiscal_26GHz_2","DIRECCIÓN__CALLE__NÚMERO__COMUNA_Y_REGIÓN_":"PASAJE PUERTA CHICA 49, COMUNA DE IQUIQUE, REGIÓN DE TARAPACÁ","LATITUD":"-20° 12' 24,25''","LONGITUD":"-70° 8' 47,72''","Frecuencia":26000,"Y":-20.206736111111109,"X":-70.1465888888889}},{"type":"Feature","id":12,"geometry":{"type":"Point","coordinates":[-70.146588888999986,-20.206736110999941]},"properties":{"OBJECTID":12,"COL_A":"","NOMBRE":"Muelle Fiscal_26GHz_3","DIRECCIÓN__CALLE__NÚMERO__COMUNA_Y_REGIÓN_":"PASAJE PUERTA CHICA 49, COMUNA DE IQUIQUE, REGIÓN DE TARAPACÁ","LATITUD":"-20° 12' 24,25''","LONGITUD":"-70° 8' 47,72''","Frecuencia":26000,"Y":-20.206736111111109,"X":-70.1465888888889}},{"type":"Feature","id":13,"geometry":{"type":"Point","coordinates":[-70.143688888999975,-20.216263888999947]},"properties":{"OBJECTID":13,"COL_A":"","NOMBRE":"Iquique Centro - 26GHz_1","DIRECCIÓN__CALLE__NÚMERO__COMUNA_Y_REGIÓN_":"ARTURO FERNANDEZ 1014 AL 1030 IQUIQUE, COMUNA DE IQUIQUE, REGIÓN DE TARAPACÁ","LATITUD":"-20° 12' 58,55''","LONGITUD":"-70° 8' 37,28''","Frecuencia":26000,"Y":-20.216263888888889,"X":-70.143688888888889}},{"type":"Feature","id":14,"geometry":{"type":"Point","coordinates":[-70.143688888999975,-20.216263888999947]},"properties":{"OBJECTID":14,"COL_A":"","NOMBRE":"Iquique Centro - 26GHz_2","DIRECCIÓN__CALLE__NÚMERO__COMUNA_Y_REGIÓN_":"ARTURO FERNANDEZ 1014 AL 1030 IQUIQUE, COMUNA DE IQUIQUE, REGIÓN DE TARAPACÁ","LATITUD":"-20° 12' 58,55''","LONGITUD":"-70° 8' 37,28''","Frecuencia":26000,"Y":-20.216263888888889,"X":-70.143688888888889}},{"type":"Feature","id":15,"geometry":{"type":"Point","coordinates":[-70.143688888999975,-20.216263888999947]},"properties":{"OBJECTID":15,"COL_A":"","NOMBRE":"Iquique Centro - 26GHz_3","DIRECCIÓN__CALLE__NÚMERO__COMUNA_Y_REGIÓN_":"ARTURO FERNANDEZ 1014 AL 1030 IQUIQUE, COMUNA DE IQUIQUE, REGIÓN DE TARAPACÁ","LATITUD":"-20° 12' 58,55''","LONGITUD":"-70° 8' 37,28''","Frecuencia":26000,"Y":-20.216263888888889,"X":-70.143688888888889}},{"type":"Feature","id":16,"geometry":{"type":"Point","coordinates":[-70.130291666999938,-20.206652777999977]},"properties":{"OBJECTID":16,"COL_A":"","NOMBRE":"Zofri - 26GHz_1","DIRECCIÓN__CALLE__NÚMERO__COMUNA_Y_REGIÓN_":"SUB ESTACION COLORADO - IQUIQUE, COMUNA DE IQUIQUE, REGIÓN DE TARAPACÁ","LATITUD":"-20° 12' 23,95''","LONGITUD":"-70° 7' 49,05''","Frecuencia":26000,"Y":-20.206652777777776,"X":-70.130291666666665}},{"type":"Feature","id":17,"geometry":{"type":"Point","coordinates":[-70.130291666999938,-20.206652777999977]},"properties":{"OBJECTID":17,"COL_A":"","NOMBRE":"Zofri - 26GHz_2","DIRECCIÓN__CALLE__NÚMERO__COMUNA_Y_REGIÓN_":"SUB ESTACION COLORADO - IQUIQUE, COMUNA DE IQUIQUE, REGIÓN DE TARAPACÁ","LATITUD":"-20° 12' 23,95''","LONGITUD":"-70° 7' 49,05''","Frecuencia":26000,"Y":-20.206652777777776,"X":-70.130291666666665}},{"type":"Feature","id":18,"geometry":{"type":"Point","coordinates":[-70.130291666999938,-20.206652777999977]},"properties":{"OBJECTID":18,"COL_A":"","NOMBRE":"Zofri - 26GHz_3","DIRECCIÓN__CALLE__NÚMERO__COMUNA_Y_REGIÓN_":"SUB ESTACION COLORADO - IQUIQUE, COMUNA DE IQUIQUE, REGIÓN DE TARAPACÁ","LATITUD":"-20° 12' 23,95''","LONGITUD":"-70° 7' 49,05''","Frecuencia":26000,"Y":-20.206652777777776,"X":-70.130291666666665}}]}